{
"type": "FeatureCollection",
"crs": { "type": "name", "properties": { "name": "urn:ogc:def:crs:OGC:1.3:CRS84" } },
                                                                                
"features": [
{ "type": "Feature", "properties": { "id": "1", "nome": "Aeroporto regional de canoa quebrada", "municipio": "Aracati", "extensao_da_pista": "1800x30", "superficie": "asfalto" }, "geometry": { "type": "Point", "coordinates": [ -37.802508534989336, -4.567904576061302 ] } },
{ "type": "Feature", "properties": { "id": "2", "nome": "Aeroporto regional de camocim", "municipio": "Camocim", "extensao_da_pista": "1200x30", "superficie": "asfalto" }, "geometry": { "type": "Point", "coordinates": [ -40.859007935198967, -2.895645907684639 ] } },
{ "type": "Feature", "properties": { "id": "3", "nome": "Aeroporto regional de campos sales", "municipio": "Campos Sales", "extensao_da_pista": "1200x32", "superficie": "asfalto" }, "geometry": { "type": "Point", "coordinates": [ -40.358401590238088, -7.051704506334191 ] } },
{ "type": "Feature", "properties": { "id": "4", "nome": "Aeroporto regional de crateús", "municipio": "Crateús", "extensao_da_pista": "1500x30", "superficie": "asfalto" }, "geometry": { "type": "Point", "coordinates": [ -40.704193573344845, -5.211360103042734 ] } },
{ "type": "Feature", "properties": { "id": "5", "nome": "Aeroporto regional de iguatu", "municipio": "Iguatu", "extensao_da_pista": "1410x30", "superficie": "asfalto" }, "geometry": { "type": "Point", "coordinates": [ -39.294507815092793, -6.346220197299751 ] } },
{ "type": "Feature", "properties": { "id": "6", "nome": "Aeroporto regional de jijoca de jericoacoara", "municipio": "Cruz", "extensao_da_pista": "2200x45", "superficie": "asfalto" }, "geometry": { "type": "Point", "coordinates": [ -40.35833752583553, -2.906390566529591 ] } },
{ "type": "Feature", "properties": { "id": "7", "nome": "Aeroporto regional de quixadá", "municipio": "Quixadá", "extensao_da_pista": "1200x30", "superficie": "asfalto" }, "geometry": { "type": "Point", "coordinates": [ -38.987605751035638, -4.979027117539695 ] } },
{ "type": "Feature", "properties": { "id": "8", "nome": "Aeroporto regional de são benedito", "municipio": "São Benedito", "extensao_da_pista": "1500x30", "superficie": "asfalto" }, "geometry": { "type": "Point", "coordinates": [ -40.893063220326844, -4.042735270521782 ] } },
{ "type": "Feature", "properties": { "id": "9", "nome": "Aeroporto regional de sobral", "municipio": "Sobral", "extensao_da_pista": "1033x30", "superficie": "asfalto" }, "geometry": { "type": "Point", "coordinates": [ -40.336796931445022, -3.678857161290656 ] } },
{ "type": "Feature", "properties": { "id": "10", "nome": "Aeroporto regional de tauá", "municipio": "Tauá", "extensao_da_pista": "1200x30", "superficie": "asfalto" }, "geometry": { "type": "Point", "coordinates": [ -40.298340896036152, -5.933835803435324 ] } },
{ "type": "Feature", "properties": { "id": "11", "nome": "Aeroporto Internacional de Fortaleza", "municipio": "Fortaleza", "extensao_da_pista": "2545x45", "superficie": "asfalto" }, "geometry": { "type": "Point", "coordinates": [ -38.540958308701988, -3.779688782925485 ] } },
{ "type": "Feature", "properties": { "id": "12", "nome": "Aeroporto de Juazeiro do Norte", "municipio": "Juazeiro do Norte", "extensao_da_pista": "1800x45", "superficie": "asfalto" }, "geometry": { "type": "Point", "coordinates": [ -39.270934833860473, -7.218551720004966 ] } }
]
}
