{
"type": "FeatureCollection",
"crs": { "type": "name", "properties": { "name": "urn:ogc:def:crs:OGC:1.3:CRS84" } },
                                                                                
"features": [
{ "type": "Feature", "properties": { "id": "1", "nome": "CONSELHO ESTADUAL DE ASSISTÊNCIA SOCIAL", "endereco": "SILVA PAULET", "numero": "334", "bairro": "MEIRELES", "cep": "60120-020", "municipio": "FORTALEZA" }, "geometry": { "type": "Point", "coordinates": [ -38.509268760681103, -3.74675458068501 ] } },
{ "type": "Feature", "properties": { "id": "2", "nome": "CONSELHO MUNICIPAL DE ASSISTÊNCIA SOCIAL", "endereco": "PE. IBIAPINA", "numero": "348", "bairro": "CENTRO", "cep": "63240-000", "municipio": "ABAIARA" }, "geometry": { "type": "Point", "coordinates": [ -39.047612493450202, -7.35974388717007 ] } },
{ "type": "Feature", "properties": { "id": "3", "nome": "CONSELHO MUNICIPAL DE ASSISTÊNCIA SOCIAL", "endereco": "JOSÉ GUILHERME", "numero": "45", "bairro": "CENTRO", "cep": "62785-000", "municipio": "ACARAPE" }, "geometry": { "type": "Point", "coordinates": [ -38.705027103424001, -4.22403793365077 ] } },
{ "type": "Feature", "properties": { "id": "4", "nome": "CONSELHO MUNICIPAL DE ASSISTÊNCIA SOCIAL", "endereco": "CORONEL SALES", "numero": "566", "bairro": "CENTRO", "cep": "62580-000", "municipio": "ACARAU" }, "geometry": { "type": "Point", "coordinates": [ -40.1208043098449, -2.88704456596805 ] } },
{ "type": "Feature", "properties": { "id": "5", "nome": "CONSELHO MUNICIPAL DE ASSISTÊNCIA SOCIAL", "endereco": "RUA  JOSÉ PAULINO", "numero": "215", "bairro": "CENTRO", "cep": "63560-000", "municipio": "ACOPIARA" }, "geometry": { "type": "Point", "coordinates": [ -39.4559811, -6.0894716 ] } },
{ "type": "Feature", "properties": { "id": "6", "nome": "CONSELHO MUNICIPAL DE ASSISTÊNCIA SOCIAL", "endereco": "RUA ARMANDO ARRAES FEITOSA", "numero": "90", "bairro": "BOA VISTA", "cep": "63575-000", "municipio": "AIUABA" }, "geometry": { "type": "Point", "coordinates": [ -40.122606754302893, -6.5684780326383 ] } },
{ "type": "Feature", "properties": { "id": "7", "nome": "CONSELHO MUNICIPAL DE ASSISTÊNCIA SOCIAL", "endereco": "GREGÓRIO CUNHA FREIRE", "numero": "0", "bairro": "BELA VISTA", "cep": "62120-000", "municipio": "ALCANTARAS" }, "geometry": { "type": "Point", "coordinates": [ -40.543265640735598, -3.58578474133216 ] } },
{ "type": "Feature", "properties": { "id": "8", "nome": "CONSELHO MUNICIPAL DE ASSISTÊNCIA SOCIAL", "endereco": "JOAQUIM SOARES DA SILVA", "numero": "318", "bairro": "CENTRO", "cep": "63195-000", "municipio": "ALTANEIRA" }, "geometry": { "type": "Point", "coordinates": [ -39.739801883697503, -7.00244421781749 ] } },
{ "type": "Feature", "properties": { "id": "9", "nome": "CONSELHO MUNICIPAL DE ASSISTÊNCIA SOCIAL", "endereco": "AV:DR: EDSON GUERRA", "numero": "628", "bairro": "CENTRO", "cep": "62970-000", "municipio": "ALTO SANTO" }, "geometry": { "type": "Point", "coordinates": [ -38.267194032669003, -5.51546072997672 ] } },
{ "type": "Feature", "properties": { "id": "10", "nome": "CONSELHO MUNICIPAL DE ASSISTÊNCIA SOCIAL", "endereco": "PADRE PEDRO VITORINO", "numero": "1272", "bairro": "CENTRO", "cep": "62540-000", "municipio": "AMONTADA" }, "geometry": { "type": "Point", "coordinates": [ -39.828550815582197, -3.36241674464987 ] } },
{ "type": "Feature", "properties": { "id": "11", "nome": "CONSELHO MUNICIPAL DE ASSISTÊNCIA SOCIAL", "endereco": "NELITO MENDES", "numero": "428", "bairro": "CENTRO", "cep": "63570-000", "municipio": "ANTONINA DO NORTE" }, "geometry": { "type": "Point", "coordinates": [ -39.986211061477597, -6.77436612900829 ] } },
{ "type": "Feature", "properties": { "id": "12", "nome": "CONSELHO MUNICIPAL DE ASSISTÊNCIA SOCIAL", "endereco": "AVENIDA GOMES DA SILVA", "numero": "0", "bairro": "CENTRO", "cep": "62630-000", "municipio": "APUIARES" }, "geometry": { "type": "Point", "coordinates": [ -39.429738521575906, -3.946310888031781 ] } },
{ "type": "Feature", "properties": { "id": "13", "nome": "CONSELHO MUNICIPAL DE ASSISTÊNCIA SOCIAL", "endereco": "RUA PEDRO BRASIL", "numero": "520", "bairro": "CENTRO", "cep": "61700-000", "municipio": "AQUIRAZ" }, "geometry": { "type": "Point", "coordinates": [ -38.3910584449768, -3.90099147029022 ] } },
{ "type": "Feature", "properties": { "id": "14", "nome": "CONSELHO MUNICIPAL DE ASSISTÊNCIA SOCIAL", "endereco": "CORONEL ALEXANDRINO", "numero": "1110", "bairro": "CENTRO", "cep": "62800-000", "municipio": "ARACATI" }, "geometry": { "type": "Point", "coordinates": [ -37.773345708847003, -4.56811515989924 ] } },
{ "type": "Feature", "properties": { "id": "15", "nome": "CONSELHO MUNICIPAL DE ASSISTÊNCIA SOCIAL", "endereco": "PROFESSORA MARIA MADALENA SILVA MATOS", "numero": "0", "bairro": "CENTRO", "cep": "62750-000", "municipio": "ARACOIABA" }, "geometry": { "type": "Point", "coordinates": [ -38.8120150566101, -4.36887669945753 ] } },
{ "type": "Feature", "properties": { "id": "16", "nome": "CONSELHO MUNICIPAL DE ASSISTÊNCIA SOCIAL", "endereco": "HENRIQUE SOARES", "numero": "0", "bairro": "CENTRO", "cep": "62210-000", "municipio": "ARARENDA" }, "geometry": { "type": "Point", "coordinates": [ -40.830066204071002, -4.75117497890098 ] } },
{ "type": "Feature", "properties": { "id": "17", "nome": "CONSELHO MUNICIPAL DE ASSISTÊNCIA SOCIAL", "endereco": "ALEXANDRE ARRAES", "numero": "937", "bairro": "CENTRO", "cep": "63170-000", "municipio": "ARARIPE" }, "geometry": { "type": "Point", "coordinates": [ -40.137766599655102, -7.211656571536329 ] } },
{ "type": "Feature", "properties": { "id": "18", "nome": "CONSELHO MUNICIPAL DE ASSISTÊNCIA SOCIAL", "endereco": "JOSÉ IVAN SANTOS", "numero": "127", "bairro": "CENTRO", "cep": "62762-000", "municipio": "ARATUBA" }, "geometry": { "type": "Point", "coordinates": [ -39.044970273971501, -4.41805222896954 ] } },
{ "type": "Feature", "properties": { "id": "19", "nome": "CONSELHO MUNICIPAL DE ASSISTÊNCIA SOCIAL", "endereco": "ANTONIO LOUREIRO LINO", "numero": "12", "bairro": "CENTRO", "cep": "63670-000", "municipio": "ARNEIROZ" }, "geometry": { "type": "Point", "coordinates": [ -40.161938667297299, -6.32182469957717 ] } },
{ "type": "Feature", "properties": { "id": "20", "nome": "CONSELHO MUNICIPAL DE ASSISTÊNCIA SOCIAL", "endereco": "EUCLIDES ONOFRE", "numero": "128", "bairro": "CENTRO", "cep": "63140-000", "municipio": "ASSARE" }, "geometry": { "type": "Point", "coordinates": [ -39.871981143951409, -6.87170123113673 ] } },
{ "type": "Feature", "properties": { "id": "21", "nome": "CONSELHO MUNICIPAL DE ASSISTÊNCIA SOCIAL", "endereco": "ANTONIO RICARDO", "numero": "39", "bairro": "CENTRO", "cep": "63360-000", "municipio": "AURORA" }, "geometry": { "type": "Point", "coordinates": [ -38.968205451965297, -6.94306268931059 ] } },
{ "type": "Feature", "properties": { "id": "22", "nome": "CONSELHO MUNICIPAL DE ASSISTÊNCIA SOCIAL", "endereco": "CORONEL LIBERALINO DE CARVALHO", "numero": "26", "bairro": "CENTRO", "cep": "63320-000", "municipio": "BAIXIO" }, "geometry": { "type": "Point", "coordinates": [ -38.717150688171294, -6.73050190318393 ] } },
{ "type": "Feature", "properties": { "id": "23", "nome": "CONSELHO MUNICIPAL DE ASSISTÊNCIA SOCIAL", "endereco": "QUEIROZ PESSOA", "numero": "0", "bairro": "CENTRO", "cep": "63960-000", "municipio": "BANABUIU" }, "geometry": { "type": "Point", "coordinates": [ -38.9182852, -5.3104196 ] } },
{ "type": "Feature", "properties": { "id": "24", "nome": "CONSELHO MUNICIPAL DE ASSISTÊNCIA SOCIAL", "endereco": "PIO SAMPAIO", "numero": "499", "bairro": "CIROLÂNDIA", "cep": "63180-000", "municipio": "BARBALHA" }, "geometry": { "type": "Point", "coordinates": [ -39.299332201480802, -7.320597656529329 ] } },
{ "type": "Feature", "properties": { "id": "25", "nome": "CONSELHO MUNICIPAL DE ASSISTÊNCIA SOCIAL", "endereco": "LUCIO TORRES", "numero": "622", "bairro": "CENTRO", "cep": "62795-000", "municipio": "BARREIRA" }, "geometry": { "type": "Point", "coordinates": [ -38.639522926396197, -4.28749836490966 ] } },
{ "type": "Feature", "properties": { "id": "26", "nome": "CONSELHO MUNICIPAL DE ASSISTÊNCIA SOCIAL", "endereco": "MAJOR JANUARIO", "numero": "0", "bairro": "CENTRO", "cep": "63380-000", "municipio": "BARRO" }, "geometry": { "type": "Point", "coordinates": [ -38.777103424072202, -7.169344848893501 ] } },
{ "type": "Feature", "properties": { "id": "27", "nome": "CONSELHO MUNICIPAL DE ASSISTÊNCIA SOCIAL", "endereco": "AUGUSTA VERAS", "numero": "0", "bairro": "CENTRO", "cep": "62410-000", "municipio": "BARROQUINHA" }, "geometry": { "type": "Point", "coordinates": [ -41.1320239305496, -3.02484450343864 ] } },
{ "type": "Feature", "properties": { "id": "28", "nome": "CONSELHO MUNICIPAL DE ASSISTÊNCIA SOCIAL", "endereco": "FRANCISCO BRAGA FILHO", "numero": "1", "bairro": "CONSELHEIRO ESTE", "cep": "62760-000", "municipio": "BATURITE" }, "geometry": { "type": "Point", "coordinates": [ -38.884305953979499, -4.33295309561348 ] } },
{ "type": "Feature", "properties": { "id": "29", "nome": "CONSELHO MUNICIPAL DE ASSISTÊNCIA SOCIAL", "endereco": "JOSE BESSA", "numero": "101", "bairro": "CENTRO", "cep": "62840-000", "municipio": "BEBERIBE" }, "geometry": { "type": "Point", "coordinates": [ -38.125761151313696, -4.1841885820324 ] } },
{ "type": "Feature", "properties": { "id": "30", "nome": "CONSELHO MUNICIPAL DE ASSISTÊNCIA SOCIAL", "endereco": "RUA CORONEL DUCA DA SILVEIRA", "numero": "0", "bairro": "CENTRO", "cep": "62570-000", "municipio": "BELA CRUZ" }, "geometry": { "type": "Point", "coordinates": [ -40.168998241424497, -3.05648215174063 ] } },
{ "type": "Feature", "properties": { "id": "31", "nome": "CONSELHO MUNICIPAL DE ASSISTÊNCIA SOCIAL", "endereco": "ANTÔNIO QUEIROZ", "numero": "250", "bairro": "CENTRO", "cep": "63870-000", "municipio": "BOA VIAGEM" }, "geometry": { "type": "Point", "coordinates": [ -39.732141494750898, -5.12618732340009 ] } },
{ "type": "Feature", "properties": { "id": "32", "nome": "CONSELHO MUNICIPAL DE ASSISTÊNCIA SOCIAL", "endereco": "JOSÉ INACIO DE LUCENA", "numero": "0", "bairro": "ARAUJÃO", "cep": "63260-000", "municipio": "BREJO SANTO" }, "geometry": { "type": "Point", "coordinates": [ -38.986787796020494, -7.492281668620721 ] } },
{ "type": "Feature", "properties": { "id": "33", "nome": "CONSELHO MUNICIPAL DE ASSISTÊNCIA SOCIAL", "endereco": "RIACHUELO", "numero": "0", "bairro": "CENTRO", "cep": "62400-000", "municipio": "CAMOCIM" }, "geometry": { "type": "Point", "coordinates": [ -40.848691463470402, -2.8991526985043 ] } },
{ "type": "Feature", "properties": { "id": "34", "nome": "CONSELHO MUNICIPAL DE ASSISTÊNCIA SOCIAL", "endereco": "JOSE ALVES", "numero": "150", "bairro": "ALTO ALEGRE", "cep": "63150-000", "municipio": "CAMPOS SALES" }, "geometry": { "type": "Point", "coordinates": [ -40.373349893614801, -7.06972405 ] } },
{ "type": "Feature", "properties": { "id": "35", "nome": "CONSELHO MUNICIPAL DE ASSISTÊNCIA SOCIAL", "endereco": "FREI MATEUS", "numero": "2164", "bairro": "CENTRO", "cep": "62700-000", "municipio": "CANINDE" }, "geometry": { "type": "Point", "coordinates": [ -39.315540790557797, -4.35922734715229 ] } },
{ "type": "Feature", "properties": { "id": "36", "nome": "CONSELHO MUNICIPAL DE ASSISTÊNCIA SOCIAL", "endereco": "ANTÔNIO FERNANDES BEZERRA", "numero": "0", "bairro": "CENTRO", "cep": "62748-000", "municipio": "CAPISTRANO" }, "geometry": { "type": "Point", "coordinates": [ -38.900785446166999, -4.46609069516421 ] } },
{ "type": "Feature", "properties": { "id": "37", "nome": "CONSELHO MUNICIPAL DE ASSISTÊNCIA SOCIAL", "endereco": "CORONEL FRANCISCO LINHARES", "numero": "345", "bairro": "CENTRO", "cep": "62730-000", "municipio": "CARIDADE" }, "geometry": { "type": "Point", "coordinates": [ -39.192867279052699, -4.2297568984296 ] } },
{ "type": "Feature", "properties": { "id": "38", "nome": "CONSELHO MUNICIPAL DE ASSISTÊNCIA SOCIAL", "endereco": "DOUTOR JOSÉ TELES", "numero": "401", "bairro": "AÇUDE NOVO", "cep": "62184-000", "municipio": "CARIRE" }, "geometry": { "type": "Point", "coordinates": [ -40.480079650515101, -3.94864065772825 ] } },
{ "type": "Feature", "properties": { "id": "39", "nome": "CONSELHO MUNICIPAL DE ASSISTÊNCIA SOCIAL", "endereco": "MIGUEL XAVIER  S\/N", "numero": "0", "bairro": "MESTRE NECO", "cep": "63220-000", "municipio": "CARIRIACU" }, "geometry": { "type": "Point", "coordinates": [ -39.280221462249699, -7.0415450031469 ] } },
{ "type": "Feature", "properties": { "id": "40", "nome": "CONSELHO MUNICIPAL DE ASSISTÊNCIA SOCIAL", "endereco": "RAUL NOGUEIRA", "numero": "76", "bairro": "ESPLANADA", "cep": "63530-000", "municipio": "CARIUS" }, "geometry": { "type": "Point", "coordinates": [ -39.496034926050903, -6.54084485293062 ] } },
{ "type": "Feature", "properties": { "id": "41", "nome": "CONSELHO MUNICIPAL DE ASSISTÊNCIA SOCIAL", "endereco": "PRESIDENTE MEDICE", "numero": "167", "bairro": "CENTRO", "cep": "62375-000", "municipio": "CARNAUBAL" }, "geometry": { "type": "Point", "coordinates": [ -40.941884815692902, -4.16214845320278 ] } },
{ "type": "Feature", "properties": { "id": "42", "nome": "CONSELHO MUNICIPAL DE ASSISTÊNCIA SOCIAL", "endereco": "CHANCELER EDSON QUEIROZ", "numero": "2460", "bairro": "CENTRO", "cep": "62850-000", "municipio": "CASCAVEL" }, "geometry": { "type": "Point", "coordinates": [ -38.240924535751297, -4.133322105363511 ] } },
{ "type": "Feature", "properties": { "id": "43", "nome": "CONSELHO MUNICIPAL DE ASSISTÊNCIA SOCIAL", "endereco": "RUA FAUSTO NOGUEIRA", "numero": "0", "bairro": "PEDREIRAS", "cep": "63595-000", "municipio": "CATARINA" }, "geometry": { "type": "Point", "coordinates": [ -39.880006313323896, -6.13560514193182 ] } },
{ "type": "Feature", "properties": { "id": "44", "nome": "CONSELHO MUNICIPAL DE ASSISTÊNCIA SOCIAL", "endereco": "JOÃO CARLOS DE OLIVEIRA", "numero": "496", "bairro": "CENTRO", "cep": "62297-000", "municipio": "CATUNDA" }, "geometry": { "type": "Point", "coordinates": [ -40.200669765472398, -4.64963661075806 ] } },
{ "type": "Feature", "properties": { "id": "45", "nome": "CONSELHO MUNICIPAL DE ASSISTÊNCIA SOCIAL", "endereco": "JOSÉ DE PONTES, S\/N", "numero": "0", "bairro": "PARQUE SOLEDADE", "cep": "61600-000", "municipio": "CAUCAIA" }, "geometry": { "type": "Point", "coordinates": [ -38.6537218093872, -3.73774016267231 ] } },
{ "type": "Feature", "properties": { "id": "46", "nome": "CONSELHO MUNICIPAL DE ASSISTÊNCIA SOCIAL", "endereco": "CORONEL CELSO ARAÚJO", "numero": "320", "bairro": "FÁTIMA", "cep": "63400-000", "municipio": "CEDRO" }, "geometry": { "type": "Point", "coordinates": [ -39.064357280731201, -6.60699603389135 ] } },
{ "type": "Feature", "properties": { "id": "47", "nome": "CONSELHO MUNICIPAL DE ASSISTÊNCIA SOCIAL", "endereco": "RUA JOSÉ ROMÃO RIOS", "numero": "0", "bairro": "CENTRO", "cep": "62420-000", "municipio": "CHAVAL" }, "geometry": { "type": "Point", "coordinates": [ -41.239362, -3.0354134 ] } },
{ "type": "Feature", "properties": { "id": "48", "nome": "CONSELHO MUNICIPAL DE ASSISTÊNCIA SOCIAL", "endereco": "CEL. JOÃO PARACAMPOS", "numero": "1410", "bairro": "ALTO DO CRUZEIRO", "cep": "63950-000", "municipio": "CHORO" }, "geometry": { "type": "Point", "coordinates": [ -39.133107662200899, -4.84545027795952 ] } },
{ "type": "Feature", "properties": { "id": "49", "nome": "CONSELHO MUNICIPAL DE ASSISTÊNCIA SOCIAL", "endereco": "RAIMUNDO SIMPLICIO DE CARVALHO", "numero": "0", "bairro": "CENTRO", "cep": "62875-000", "municipio": "CHOROZINHO" }, "geometry": { "type": "Point", "coordinates": [ -38.49774599075311, -4.30346836176749 ] } },
{ "type": "Feature", "properties": { "id": "50", "nome": "CONSELHO MUNICIPAL DE ASSISTÊNCIA SOCIAL", "endereco": "DOM JOSÉ", "numero": "55", "bairro": "CENTRO", "cep": "62160-000", "municipio": "COREAU" }, "geometry": { "type": "Point", "coordinates": [ -40.651221275475102, -3.5514693647614 ] } },
{ "type": "Feature", "properties": { "id": "51", "nome": "CONSELHO MUNICIPAL DE ASSISTÊNCIA SOCIAL", "endereco": "MANOEL AUGUSTINHO", "numero": "544", "bairro": "SÃO VICENTE", "cep": "63700-000", "municipio": "CRATEUS" }, "geometry": { "type": "Point", "coordinates": [ -40.664746544934999, -5.18097267047058 ] } },
{ "type": "Feature", "properties": { "id": "52", "nome": "CONSELHO MUNICIPAL DE ASSISTÊNCIA SOCIAL", "endereco": "PERIMETRAL DOM FRANCISCO", "numero": "1", "bairro": "SÃO MIGUEL", "cep": "63122-375", "municipio": "CRATO" }, "geometry": { "type": "Point", "coordinates": [ -39.394376277923506, -7.22714327149546 ] } },
{ "type": "Feature", "properties": { "id": "53", "nome": "CONSELHO MUNICIPAL DE ASSISTÊNCIA SOCIAL", "endereco": "TORQUATRO BRAZ", "numero": "0", "bairro": "CENTRO", "cep": "62390-000", "municipio": "CROATA" }, "geometry": { "type": "Point", "coordinates": [ -40.908547639846802, -4.41415852689242 ] } },
{ "type": "Feature", "properties": { "id": "54", "nome": "CONSELHO MUNICIPAL DE ASSISTÊNCIA SOCIAL", "endereco": "AVENIDA 14 DE JANEIRO - PRAÇA DOS TRES PO", "numero": "0", "bairro": "ANINGAS", "cep": "62595-000", "municipio": "CRUZ" }, "geometry": { "type": "Point", "coordinates": [ -40.182065963745103, -2.93024750227741 ] } },
{ "type": "Feature", "properties": { "id": "55", "nome": "CONSELHO MUNICIPAL DE ASSISTÊNCIA SOCIAL", "endereco": "CANDIDO BORGES", "numero": "10", "bairro": "CENTRO ADMINISTRATIVO", "cep": "63645-000", "municipio": "DEPUTADO IRAPUAN PINHEIRO" }, "geometry": { "type": "Point", "coordinates": [ -39.266510009765597, -5.91754119546929 ] } },
{ "type": "Feature", "properties": { "id": "56", "nome": "CONSELHO MUNICIPAL DE ASSISTÊNCIA SOCIAL", "endereco": "CAPITÃO DAMIÃO PORTO", "numero": "400", "bairro": "FRANCISCO NOGUEIRA", "cep": "63470-000", "municipio": "ERERE" }, "geometry": { "type": "Point", "coordinates": [ -38.347885608673003, -6.03060652310554 ] } },
{ "type": "Feature", "properties": { "id": "57", "nome": "CONSELHO MUNICIPAL DE ASSISTÊNCIA SOCIAL", "endereco": "EDUARDO SÁ", "numero": "51", "bairro": "CENTRO", "cep": "61760-000", "municipio": "EUSEBIO" }, "geometry": { "type": "Point", "coordinates": [ -38.4546985, -3.8903095 ] } },
{ "type": "Feature", "properties": { "id": "58", "nome": "CONSELHO MUNICIPAL DE ASSISTÊNCIA SOCIAL", "endereco": "RUA JOSÉ ALVES PIMENTEL", "numero": "87", "bairro": "CENTRO", "cep": "63185-000", "municipio": "FARIAS BRITO" }, "geometry": { "type": "Point", "coordinates": [ -39.573011398315401, -6.92724161229366 ] } },
{ "type": "Feature", "properties": { "id": "59", "nome": "CONSELHO MUNICIPAL DE ASSISTÊNCIA SOCIAL", "endereco": "5 DE FEVEREIRO, S\/N", "numero": "0", "bairro": "CENTRO", "cep": "62115-000", "municipio": "FORQUILHA" }, "geometry": { "type": "Point", "coordinates": [ -40.264881849288898, -3.80187218544714 ] } },
{ "type": "Feature", "properties": { "id": "60", "nome": "CONSELHO MUNICIPAL DE ASSISTÊNCIA SOCIAL", "endereco": "PADRE PEDRO DE ALENCAR", "numero": "2230", "bairro": "MESSEJANA", "cep": "60873-082", "municipio": "FORTALEZA" }, "geometry": { "type": "Point", "coordinates": [ -38.494886755943298, -3.84695873387115 ] } },
{ "type": "Feature", "properties": { "id": "61", "nome": "CONSELHO MUNICIPAL DE ASSISTÊNCIA SOCIAL", "endereco": "JÚLIA SIMÕES", "numero": "490", "bairro": "CENTRO", "cep": "62815-000", "municipio": "FORTIM" }, "geometry": { "type": "Point", "coordinates": [ -37.794352769851599, -4.45080558205845 ] } },
{ "type": "Feature", "properties": { "id": "62", "nome": "CONSELHO MUNICIPAL DE ASSISTÊNCIA SOCIAL", "endereco": "RUA MARIA PONTES", "numero": "603", "bairro": "CENTRO", "cep": "62340-000", "municipio": "FRECHEIRINHA" }, "geometry": { "type": "Point", "coordinates": [ -40.814423561096099, -3.76214953576554 ] } },
{ "type": "Feature", "properties": { "id": "63", "nome": "CONSELHO MUNICIPAL DE ASSISTÊNCIA SOCIAL", "endereco": "JOSÉ SEVERINO FILHO", "numero": "184", "bairro": "SAGRADO CORAÇÃO DE JESUS", "cep": "62738-000", "municipio": "GENERAL SAMPAIO" }, "geometry": { "type": "Point", "coordinates": [ -39.450284242629998, -4.0514008425122 ] } },
{ "type": "Feature", "properties": { "id": "64", "nome": "CONSELHO MUNICIPAL DE ASSISTÊNCIA SOCIAL", "endereco": "RAIMUNDO DA CUNHA BRITO", "numero": "0", "bairro": "CENTRO", "cep": "62365-000", "municipio": "GRACA" }, "geometry": { "type": "Point", "coordinates": [ -40.752024650573702, -4.04655281046544 ] } },
{ "type": "Feature", "properties": { "id": "65", "nome": "CONSELHO MUNICIPAL DE ASSISTÊNCIA SOCIAL", "endereco": "TIAGO RIBAS S\/N", "numero": "0", "bairro": "CENTRO", "cep": "62430-000", "municipio": "GRANJA" }, "geometry": { "type": "Point", "coordinates": [ -40.827692449092801, -3.11895652635163 ] } },
{ "type": "Feature", "properties": { "id": "66", "nome": "CONSELHO MUNICIPAL DE ASSISTÊNCIA SOCIAL", "endereco": "DAVID GRANJEIRO", "numero": "104", "bairro": "CENTRO", "cep": "63230-000", "municipio": "GRANJEIRO" }, "geometry": { "type": "Point", "coordinates": [ -39.219024181386402, -6.89251513962385 ] } },
{ "type": "Feature", "properties": { "id": "67", "nome": "CONSELHO MUNICIPAL DE ASSISTÊNCIA SOCIAL", "endereco": "LOURENÇO GUIMARÃES", "numero": "53", "bairro": "CENTRO", "cep": "62190-000", "municipio": "GROAIRAS" }, "geometry": { "type": "Point", "coordinates": [ -40.3850448131561, -3.91767880672777 ] } },
{ "type": "Feature", "properties": { "id": "68", "nome": "CONSELHO MUNICIPAL DE ASSISTÊNCIA SOCIAL", "endereco": "PEDRO AUGUSTO", "numero": "53", "bairro": "CENTRO", "cep": "61890-000", "municipio": "GUAIUBA" }, "geometry": { "type": "Point", "coordinates": [ -38.634688854217501, -4.03978906164798 ] } },
{ "type": "Feature", "properties": { "id": "69", "nome": "CONSELHO MUNICIPAL DE ASSISTÊNCIA SOCIAL", "endereco": "MONSENHOR FURTADO", "numero": "539", "bairro": "CENTRO", "cep": "62380-000", "municipio": "GUARACIABA DO NORTE" }, "geometry": { "type": "Point", "coordinates": [ -40.750801563262897, -4.16122820619999 ] } },
{ "type": "Feature", "properties": { "id": "70", "nome": "CONSELHO MUNICIPAL DE ASSISTÊNCIA SOCIAL", "endereco": "JOAQUIM ALVES NOGUEIRA", "numero": "470", "bairro": "CENTRO", "cep": "62766-000", "municipio": "GUARAMIRANGA" }, "geometry": { "type": "Point", "coordinates": [ -38.935525417327803, -4.26135756224047 ] } },
{ "type": "Feature", "properties": { "id": "71", "nome": "CONSELHO MUNICIPAL DE ASSISTÊNCIA SOCIAL", "endereco": "CLAUDIO CAMELO TIMBO", "numero": "0", "bairro": "CENTRO", "cep": "62270-000", "municipio": "HIDROLANDIA" }, "geometry": { "type": "Point", "coordinates": [ -40.406947136070798, -4.40850691737791 ] } },
{ "type": "Feature", "properties": { "id": "72", "nome": "CONSELHO MUNICIPAL DE ASSISTÊNCIA SOCIAL", "endereco": "ANTONIO AGOSTINHO DA SILVA", "numero": "27", "bairro": "CENTRO", "cep": "62880-000", "municipio": "HORIZONTE" }, "geometry": { "type": "Point", "coordinates": [ -38.499505519866901, -4.10123863342265 ] } },
{ "type": "Feature", "properties": { "id": "73", "nome": "CONSELHO MUNICIPAL DE ASSISTÊNCIA SOCIAL", "endereco": "DR. NELSON DE ANDRADE SALES", "numero": "541", "bairro": "CENTRO", "cep": "63970-000", "municipio": "IBARETAMA" }, "geometry": { "type": "Point", "coordinates": [ -38.724907369786401, -4.78046465585535 ] } },
{ "type": "Feature", "properties": { "id": "74", "nome": "CONSELHO MUNICIPAL DE ASSISTÊNCIA SOCIAL", "endereco": "DEPUTADO FERNANDO MELO", "numero": "0", "bairro": "CENTRO", "cep": "62360-000", "municipio": "IBIAPINA" }, "geometry": { "type": "Point", "coordinates": [ -40.889954566955502, -3.922741672435699 ] } },
{ "type": "Feature", "properties": { "id": "75", "nome": "CONSELHO MUNICIPAL DE ASSISTÊNCIA SOCIAL", "endereco": "JOÃO DUARTE", "numero": "2212", "bairro": "CENTRO", "cep": "62955-000", "municipio": "IBICUITINGA" }, "geometry": { "type": "Point", "coordinates": [ -38.6366736888885, -4.976708652325761 ] } },
{ "type": "Feature", "properties": { "id": "76", "nome": "CONSELHO MUNICIPAL DE ASSISTÊNCIA SOCIAL", "endereco": "DOS PORFIRIOS", "numero": "19", "bairro": "CENTRO", "cep": "62810-000", "municipio": "ICAPUI" }, "geometry": { "type": "Point", "coordinates": [ -37.351605892181396, -4.71618996857858 ] } },
{ "type": "Feature", "properties": { "id": "77", "nome": "CONSELHO MUNICIPAL DE ASSISTÊNCIA SOCIAL", "endereco": "FRANCISCO MACIEL", "numero": "0", "bairro": "CENTRO", "cep": "63430-000", "municipio": "ICO" }, "geometry": { "type": "Point", "coordinates": [ -38.862183094024601, -6.40324547301128 ] } },
{ "type": "Feature", "properties": { "id": "78", "nome": "CONSELHO MUNICIPAL DE ASSISTÊNCIA SOCIAL", "endereco": "GUILHARDO GOMES DE ARAUJO", "numero": "0", "bairro": "COHAB", "cep": "63500-080", "municipio": "IGUATU" }, "geometry": { "type": "Point", "coordinates": [ -39.309833049774099, -6.37091755430657 ] } },
{ "type": "Feature", "properties": { "id": "79", "nome": "CONSELHO MUNICIPAL DE ASSISTÊNCIA SOCIAL", "endereco": "CRUZEIRO", "numero": "244", "bairro": "LIBERDADE", "cep": "63640-000", "municipio": "INDEPENDENCIA" }, "geometry": { "type": "Point", "coordinates": [ -40.313451290130608, -5.39387675459353 ] } },
{ "type": "Feature", "properties": { "id": "80", "nome": "CONSELHO MUNICIPAL DE ASSISTÊNCIA SOCIAL", "endereco": "AUGUSTO EVARISTO", "numero": "81", "bairro": "CENTRO", "cep": "62215-000", "municipio": "IPAPORANGA" }, "geometry": { "type": "Point", "coordinates": [ -40.761305093765202, -4.90541058244148 ] } },
{ "type": "Feature", "properties": { "id": "81", "nome": "CONSELHO MUNICIPAL DE ASSISTÊNCIA SOCIAL", "endereco": "MICENO ALEXANDRE", "numero": "165", "bairro": "CENTRO", "cep": "63340-000", "municipio": "IPAUMIRIM" }, "geometry": { "type": "Point", "coordinates": [ -38.717708587646399, -6.78750224745975 ] } },
{ "type": "Feature", "properties": { "id": "82", "nome": "CONSELHO MUNICIPAL DE ASSISTÊNCIA SOCIAL", "endereco": "DONA JOANA MIMOSA", "numero": "0", "bairro": "NOVA ALDEOTA", "cep": "62250-000", "municipio": "IPU" }, "geometry": { "type": "Point", "coordinates": [ -40.710804462432797, -4.317804333371201 ] } },
{ "type": "Feature", "properties": { "id": "83", "nome": "CONSELHO MUNICIPAL DE ASSISTÊNCIA SOCIAL", "endereco": "PADRE ANGELIM", "numero": "120", "bairro": "CENTRO", "cep": "62230-000", "municipio": "IPUEIRAS" }, "geometry": { "type": "Point", "coordinates": [ -40.718746186030302, -4.543137721260011 ] } },
{ "type": "Feature", "properties": { "id": "84", "nome": "CONSELHO MUNICIPAL DE ASSISTÊNCIA SOCIAL", "endereco": "FRANCISCO DAS CHAGAS QUEIROZ CAMPELO", "numero": "8", "bairro": "CENTRO", "cep": "62980-000", "municipio": "IRACEMA" }, "geometry": { "type": "Point", "coordinates": [ -38.305656194861498, -5.81031904206433 ] } },
{ "type": "Feature", "properties": { "id": "85", "nome": "CONSELHO MUNICIPAL DE ASSISTÊNCIA SOCIAL", "endereco": "JORGE DOMINGUES", "numero": "1083", "bairro": "CENTRO", "cep": "62620-000", "municipio": "IRAUCUBA" }, "geometry": { "type": "Point", "coordinates": [ -39.782416820526102, -3.74771811156186 ] } },
{ "type": "Feature", "properties": { "id": "86", "nome": "CONSELHO MUNICIPAL DE ASSISTÊNCIA SOCIAL", "endereco": "JOÃO BARBOSA LIMA", "numero": "1205", "bairro": "CENTRO", "cep": "62820-000", "municipio": "ITAICABA" }, "geometry": { "type": "Point", "coordinates": [ -37.821995615959104, -4.683822987417 ] } },
{ "type": "Feature", "properties": { "id": "87", "nome": "CONSELHO MUNICIPAL DE ASSISTÊNCIA SOCIAL", "endereco": "BOA ESPERANÇA", "numero": "81", "bairro": "PONTA DA SERRA", "cep": "61880-000", "municipio": "ITAITINGA" }, "geometry": { "type": "Point", "coordinates": [ -38.526628017425502, -3.95981846602667 ] } },
{ "type": "Feature", "properties": { "id": "88", "nome": "CONSELHO MUNICIPAL DE ASSISTÊNCIA SOCIAL", "endereco": "ANTONIO EUZEBIO BASTOS", "numero": "85", "bairro": "CRUZEIRO", "cep": "62600-000", "municipio": "ITAPAJE" }, "geometry": { "type": "Point", "coordinates": [ -39.586733579635606, -3.68921916772885 ] } },
{ "type": "Feature", "properties": { "id": "89", "nome": "CONSELHO MUNICIPAL DE ASSISTÊNCIA SOCIAL", "endereco": "JOÃO CORDEIRO", "numero": "0", "bairro": "COQUEIRO", "cep": "62500-000", "municipio": "ITAPIPOCA" }, "geometry": { "type": "Point", "coordinates": [ -39.576500181198099, -3.49788732015809 ] } },
{ "type": "Feature", "properties": { "id": "90", "nome": "CONSELHO MUNICIPAL DE ASSISTÊNCIA SOCIAL", "endereco": "FIRMINO ANTUNES", "numero": "99", "bairro": "CENTRO", "cep": "62740-000", "municipio": "ITAPIUNA" }, "geometry": { "type": "Point", "coordinates": [ -38.921577930450397, -4.56335597842657 ] } },
{ "type": "Feature", "properties": { "id": "91", "nome": "CONSELHO MUNICIPAL DE ASSISTÊNCIA SOCIAL", "endereco": "PRAÇA NOSSA SENHORA DE FÁTIMA", "numero": "48", "bairro": "CENTRO", "cep": "62590-000", "municipio": "ITAREMA" }, "geometry": { "type": "Point", "coordinates": [ -39.916344881057697, -2.92125774213184 ] } },
{ "type": "Feature", "properties": { "id": "92", "nome": "CONSELHO MUNICIPAL DE ASSISTÊNCIA SOCIAL", "endereco": "TRAJANO HONORATO", "numero": "257", "bairro": "CENTRO", "cep": "62725-000", "municipio": "ITATIRA" }, "geometry": { "type": "Point", "coordinates": [ -39.6759223937988, -4.65085567186582 ] } },
{ "type": "Feature", "properties": { "id": "93", "nome": "CONSELHO MUNICIPAL DE ASSISTÊNCIA SOCIAL", "endereco": "TEOFILO PEIXOTO", "numero": "520", "bairro": "CENTRO", "cep": "63480-000", "municipio": "JAGUARETAMA" }, "geometry": { "type": "Point", "coordinates": [ -38.748779296875, -5.62965265278576 ] } },
{ "type": "Feature", "properties": { "id": "94", "nome": "CONSELHO MUNICIPAL DE ASSISTÊNCIA SOCIAL", "endereco": "PERGENTINO ALMINO PINHEIRO", "numero": "0", "bairro": "CENTRO", "cep": "63490-000", "municipio": "JAGUARIBARA" }, "geometry": { "type": "Point", "coordinates": [ -38.4611154, -5.4606978 ] } },
{ "type": "Feature", "properties": { "id": "95", "nome": "CONSELHO MUNICIPAL DE ASSISTÊNCIA SOCIAL", "endereco": "AVENIDA 8 DE NOVEMBRO", "numero": "780", "bairro": "CENTRO", "cep": "63475-000", "municipio": "JAGUARIBE" }, "geometry": { "type": "Point", "coordinates": [ -38.621706962585399, -5.89045051027211 ] } },
{ "type": "Feature", "properties": { "id": "96", "nome": "CONSELHO MUNICIPAL DE ASSISTÊNCIA SOCIAL", "endereco": "CORONEL RAIMUNDO FRANCISCO", "numero": "1380", "bairro": "JUAZEIRO", "cep": "62823-000", "municipio": "JAGUARUANA" }, "geometry": { "type": "Point", "coordinates": [ -37.782229185104299, -4.84132373506859 ] } },
{ "type": "Feature", "properties": { "id": "97", "nome": "CONSELHO MUNICIPAL DE ASSISTÊNCIA SOCIAL", "endereco": "TEODOMIRO FILGUEIRA SAMPAIO", "numero": "50", "bairro": "CENTRO", "cep": "63290-000", "municipio": "JARDIM" }, "geometry": { "type": "Point", "coordinates": [ -39.2821526527404, -7.58183796941598 ] } },
{ "type": "Feature", "properties": { "id": "98", "nome": "CONSELHO MUNICIPAL DE ASSISTÊNCIA SOCIAL", "endereco": "SABINO PEREIRA", "numero": "62", "bairro": "CENTRO", "cep": "63275-000", "municipio": "JATI" }, "geometry": { "type": "Point", "coordinates": [ -39.006757736315102, -7.68605339624703 ] } },
{ "type": "Feature", "properties": { "id": "99", "nome": "CONSELHO MUNICIPAL DE ASSISTÊNCIA SOCIAL", "endereco": "06 DE MARÇO", "numero": "112", "bairro": "CENTRO", "cep": "62598-000", "municipio": "JIJOCA DE JERICOACOARA" }, "geometry": { "type": "Point", "coordinates": [ -40.450479984283398, -2.89442732765458 ] } },
{ "type": "Feature", "properties": { "id": "100", "nome": "CONSELHO MUNICIPAL DE ASSISTÊNCIA SOCIAL", "endereco": "MOSENHOR  ESMERALDO", "numero": "300", "bairro": "FRANCISCANOS", "cep": "63020-020", "municipio": "JUAZEIRO DO NORTE" }, "geometry": { "type": "Point", "coordinates": [ -39.311785697936998, -7.21992685460384 ] } },
{ "type": "Feature", "properties": { "id": "101", "nome": "CONSELHO MUNICIPAL DE ASSISTÊNCIA SOCIAL", "endereco": "CORONEL LUIS DUARTE", "numero": "0", "bairro": "CENTRO", "cep": "63580-000", "municipio": "JUCAS" }, "geometry": { "type": "Point", "coordinates": [ -39.523015022277797, -6.52241025562669 ] } },
{ "type": "Feature", "properties": { "id": "102", "nome": "CONSELHO MUNICIPAL DE ASSISTÊNCIA SOCIAL", "endereco": "RUA ELESBÃO DE ALMEIDA CRISPIM", "numero": "0", "bairro": "CENTRO", "cep": "63300-000", "municipio": "LAVRAS DA MANGABEIRA" }, "geometry": { "type": "Point", "coordinates": [ -38.963828086852999, -6.75142766983162 ] } },
{ "type": "Feature", "properties": { "id": "103", "nome": "CONSELHO MUNICIPAL DE ASSISTÊNCIA SOCIAL", "endereco": "CEL. ANTONIO JOAQUIM", "numero": "1915", "bairro": "CENTRO", "cep": "62930-000", "municipio": "LIMOEIRO DO NORTE" }, "geometry": { "type": "Point", "coordinates": [ -38.0996023, -5.1502311 ] } },
{ "type": "Feature", "properties": { "id": "104", "nome": "CONSELHO MUNICIPAL DE ASSISTÊNCIA SOCIAL", "endereco": "ANTONIO COSTA VIEIRA", "numero": "312", "bairro": "PINHOS", "cep": "63860-000", "municipio": "MADALENA" }, "geometry": { "type": "Point", "coordinates": [ -39.572496414184499, -4.85022891143144 ] } },
{ "type": "Feature", "properties": { "id": "105", "nome": "CONSELHO MUNICIPAL DE ASSISTÊNCIA SOCIAL", "endereco": "ANTONIO DE ALENCAR", "numero": "297", "bairro": "CENTRO", "cep": "61900-170", "municipio": "MARACANAU" }, "geometry": { "type": "Point", "coordinates": [ -38.625019247119702, -3.8766561100373 ] } },
{ "type": "Feature", "properties": { "id": "106", "nome": "CONSELHO MUNICIPAL DE ASSISTÊNCIA SOCIAL", "endereco": "CEL MANOEL PAULA", "numero": "374", "bairro": "CENTRO", "cep": "61940-065", "municipio": "MARANGUAPE" }, "geometry": { "type": "Point", "coordinates": [ -38.684591352939599, -3.8944218778554 ] } },
{ "type": "Feature", "properties": { "id": "107", "nome": "CONSELHO MUNICIPAL DE ASSISTÊNCIA SOCIAL", "endereco": "RUA PRESIDENTE MEDICE", "numero": "0", "bairro": "CENTRO", "cep": "62560-000", "municipio": "MARCO" }, "geometry": { "type": "Point", "coordinates": [ -40.150673389434807, -3.12140443113393 ] } },
{ "type": "Feature", "properties": { "id": "108", "nome": "CONSELHO MUNICIPAL DE ASSISTÊNCIA SOCIAL", "endereco": "CAPITÃO BRITO", "numero": "550", "bairro": "CENTRO", "cep": "62450-000", "municipio": "MARTINOPOLE" }, "geometry": { "type": "Point", "coordinates": [ -40.695590972900298, -3.22469326026095 ] } },
{ "type": "Feature", "properties": { "id": "109", "nome": "CONSELHO MUNICIPAL DE ASSISTÊNCIA SOCIAL", "endereco": "JOSÉ PAULINO", "numero": "23", "bairro": "CENTRO", "cep": "62140-000", "municipio": "MASSAPE" }, "geometry": { "type": "Point", "coordinates": [ -40.342552363845201, -3.52372273012909 ] } },
{ "type": "Feature", "properties": { "id": "110", "nome": "CONSELHO MUNICIPAL DE ASSISTÊNCIA SOCIAL", "endereco": "JOSÉ LEITE DA COSTA S\/N", "numero": "0", "bairro": "SERRINHA", "cep": "63210-000", "municipio": "MAURITI" }, "geometry": { "type": "Point", "coordinates": [ -38.770898255315799, -7.38545529436027 ] } },
{ "type": "Feature", "properties": { "id": "111", "nome": "CONSELHO MUNICIPAL DE ASSISTÊNCIA SOCIAL", "endereco": "CARLOS DAVI", "numero": "1", "bairro": "CENTRO", "cep": "62130-000", "municipio": "MERUOCA" }, "geometry": { "type": "Point", "coordinates": [ -40.4536056, -3.5404798 ] } },
{ "type": "Feature", "properties": { "id": "112", "nome": "CONSELHO MUNICIPAL DE ASSISTÊNCIA SOCIAL", "endereco": "AVENIDA LACORDAYRE LINS", "numero": "0", "bairro": "MISSIONARIAS", "cep": "63250-000", "municipio": "MILAGRES" }, "geometry": { "type": "Point", "coordinates": [ -38.939736025378402, -7.313228439433671 ] } },
{ "type": "Feature", "properties": { "id": "113", "nome": "CONSELHO MUNICIPAL DE ASSISTÊNCIA SOCIAL", "endereco": "PEDRO JOSÉ DE OLIVEIRA", "numero": "0", "bairro": "CENTRO", "cep": "63635-000", "municipio": "MILHA" }, "geometry": { "type": "Point", "coordinates": [ -39.193999171256998, -5.675087221667431 ] } },
{ "type": "Feature", "properties": { "id": "114", "nome": "CONSELHO MUNICIPAL DE ASSISTÊNCIA SOCIAL", "endereco": "JOSÉ LINHARES", "numero": "583", "bairro": "ALTOS", "cep": "62530-000", "municipio": "MIRAIMA" }, "geometry": { "type": "Point", "coordinates": [ -39.967060089111293, -3.56897596784533 ] } },
{ "type": "Feature", "properties": { "id": "115", "nome": "CONSELHO MUNICIPAL DE ASSISTÊNCIA SOCIAL", "endereco": "RUA PE. CICERO", "numero": "204", "bairro": "CENTRO", "cep": "63200-000", "municipio": "MISSAO VELHA" }, "geometry": { "type": "Point", "coordinates": [ -39.141637086868201, -7.247951025514621 ] } },
{ "type": "Feature", "properties": { "id": "116", "nome": "CONSELHO MUNICIPAL DE ASSISTÊNCIA SOCIAL", "endereco": "PADRE SARMENTO", "numero": "10", "bairro": "CENTRO", "cep": "63610-000", "municipio": "MOMBACA" }, "geometry": { "type": "Point", "coordinates": [ -39.626998901367102, -5.74185794809194 ] } },
{ "type": "Feature", "properties": { "id": "117", "nome": "CONSELHO MUNICIPAL DE ASSISTÊNCIA SOCIAL", "endereco": "PESSOA PIRES", "numero": "1", "bairro": "CENTRO", "cep": "63780-000", "municipio": "MONSENHOR TABOSA" }, "geometry": { "type": "Point", "coordinates": [ -40.067248642444603, -4.78897272569665 ] } },
{ "type": "Feature", "properties": { "id": "118", "nome": "CONSELHO MUNICIPAL DE ASSISTÊNCIA SOCIAL", "endereco": "MANOEL DE CASTRO", "numero": "916", "bairro": "CENTRO", "cep": "62940-000", "municipio": "MORADA NOVA" }, "geometry": { "type": "Point", "coordinates": [ -38.366661071777301, -5.11297938454655 ] } },
{ "type": "Feature", "properties": { "id": "119", "nome": "CONSELHO MUNICIPAL DE ASSISTÊNCIA SOCIAL", "endereco": "ALEXANDRE CLARINDO", "numero": "189", "bairro": "CENTRO", "cep": "62480-000", "municipio": "MORAUJO" }, "geometry": { "type": "Point", "coordinates": [ -40.6811070442199, -3.46683716968489 ] } },
{ "type": "Feature", "properties": { "id": "120", "nome": "CONSELHO MUNICIPAL DE ASSISTÊNCIA SOCIAL", "endereco": "ABDORAL ROCHA", "numero": "0", "bairro": "CENTRO", "cep": "62550-000", "municipio": "MORRINHOS" }, "geometry": { "type": "Point", "coordinates": [ -40.124366283416705, -3.22869948358065 ] } },
{ "type": "Feature", "properties": { "id": "121", "nome": "CONSELHO MUNICIPAL DE ASSISTÊNCIA SOCIAL", "endereco": "CONSTRUTOR GONÇALO VIDAL", "numero": "0", "bairro": "CENTRO", "cep": "62170-000", "municipio": "MUCAMBO" }, "geometry": { "type": "Point", "coordinates": [ -40.746205430477801, -3.904585323362459 ] } },
{ "type": "Feature", "properties": { "id": "122", "nome": "CONSELHO MUNICIPAL DE ASSISTÊNCIA SOCIAL", "endereco": "CORONEL JUSTINO CAFÉ", "numero": "432", "bairro": "CENTRO", "cep": "62764-000", "municipio": "MULUNGU" }, "geometry": { "type": "Point", "coordinates": [ -38.995982408523503, -4.30536200932957 ] } },
{ "type": "Feature", "properties": { "id": "123", "nome": "CONSELHO MUNICIPAL DE ASSISTÊNCIA SOCIAL", "endereco": "JEREMIAS PEREIRA", "numero": "497", "bairro": "CENTRO", "cep": "63165-000", "municipio": "NOVA OLINDA" }, "geometry": { "type": "Point", "coordinates": [ -39.679784774780202, -7.09297157020478 ] } },
{ "type": "Feature", "properties": { "id": "124", "nome": "CONSELHO MUNICIPAL DE ASSISTÊNCIA SOCIAL", "endereco": "GENERAL SAMPAIO", "numero": "1395", "bairro": "CENTRO", "cep": "62200-000", "municipio": "NOVA RUSSAS" }, "geometry": { "type": "Point", "coordinates": [ -40.5653429031372, -4.703487150276401 ] } },
{ "type": "Feature", "properties": { "id": "125", "nome": "CONSELHO MUNICIPAL DE ASSISTÊNCIA SOCIAL", "endereco": "DONA JOANA", "numero": "104", "bairro": "CENTRO", "cep": "63740-000", "municipio": "NOVO ORIENTE" }, "geometry": { "type": "Point", "coordinates": [ -40.779018402099602, -5.53579351086643 ] } },
{ "type": "Feature", "properties": { "id": "126", "nome": "CONSELHO MUNICIPAL DE ASSISTÊNCIA SOCIAL", "endereco": "CEL JOÃO FELIPE", "numero": "0", "bairro": "CENTRO", "cep": "62755-000", "municipio": "OCARA" }, "geometry": { "type": "Point", "coordinates": [ -38.594721794161103, -4.49128636921533 ] } },
{ "type": "Feature", "properties": { "id": "127", "nome": "CONSELHO MUNICIPAL DE ASSISTÊNCIA SOCIAL", "endereco": "ELIBA", "numero": "0", "bairro": "CENTRO", "cep": "63520-000", "municipio": "OROS" }, "geometry": { "type": "Point", "coordinates": [ -38.914561271667402, -6.24335604047606 ] } },
{ "type": "Feature", "properties": { "id": "128", "nome": "CONSELHO MUNICIPAL DE ASSISTÊNCIA SOCIAL", "endereco": "JOSE  LUCIO DE MENESES", "numero": "1254", "bairro": "CROATA I", "cep": "62870-000", "municipio": "PACAJUS" }, "geometry": { "type": "Point", "coordinates": [ -38.459937572479198, -4.17092284731456 ] } },
{ "type": "Feature", "properties": { "id": "129", "nome": "CONSELHO MUNICIPAL DE ASSISTÊNCIA SOCIAL", "endereco": "GOVERNO FAUSTINO ALBURQUEQUE", "numero": "1214", "bairro": "CENTRO", "cep": "61802-230", "municipio": "PACATUBA" }, "geometry": { "type": "Point", "coordinates": [ -38.619861602783203, -3.98469238262166 ] } },
{ "type": "Feature", "properties": { "id": "130", "nome": "CONSELHO MUNICIPAL DE ASSISTÊNCIA SOCIAL", "endereco": "DUARTE HOLANDA", "numero": "600", "bairro": "CENTRO", "cep": "62770-000", "municipio": "PACOTI" }, "geometry": { "type": "Point", "coordinates": [ -38.920074999386998, -4.22490282499981 ] } },
{ "type": "Feature", "properties": { "id": "131", "nome": "CONSELHO MUNICIPAL DE ASSISTÊNCIA SOCIAL", "endereco": "JOÃO SALMITO DE ALMEIDA", "numero": "401", "bairro": "CENTRO", "cep": "62180-000", "municipio": "PACUJA" }, "geometry": { "type": "Point", "coordinates": [ -40.696792602538999, -3.98276585823582 ] } },
{ "type": "Feature", "properties": { "id": "132", "nome": "CONSELHO MUNICIPAL DE ASSISTÊNCIA SOCIAL", "endereco": "AVENIDA POSSIDONIO BARRETO", "numero": "330", "bairro": "CENTRO", "cep": "62910-000", "municipio": "PALHANO" }, "geometry": { "type": "Point", "coordinates": [ -37.959, -4.745 ] } },
{ "type": "Feature", "properties": { "id": "133", "nome": "CONSELHO MUNICIPAL DE ASSISTÊNCIA SOCIAL", "endereco": "7 DE SETEMBRO", "numero": "673", "bairro": "CENTRO", "cep": "62780-000", "municipio": "PALMACIA" }, "geometry": { "type": "Point", "coordinates": [ -38.847033977508502, -4.14759558407033 ] } },
{ "type": "Feature", "properties": { "id": "134", "nome": "CONSELHO MUNICIPAL DE ASSISTÊNCIA SOCIAL", "endereco": "JOSUÉ ALVES", "numero": "247", "bairro": "CENTRO", "cep": "62680-000", "municipio": "PARACURU" }, "geometry": { "type": "Point", "coordinates": [ -39.028670489787999, -3.40869245783019 ] } },
{ "type": "Feature", "properties": { "id": "135", "nome": "CONSELHO MUNICIPAL DE ASSISTÊNCIA SOCIAL", "endereco": "RUA ANTONIO TABOSA", "numero": "89", "bairro": "CENTRO", "cep": "62685-000", "municipio": "PARAIPABA" }, "geometry": { "type": "Point", "coordinates": [ -39.146583080291698, -3.43718292598103 ] } },
{ "type": "Feature", "properties": { "id": "136", "nome": "CONSELHO MUNICIPAL DE ASSISTÊNCIA SOCIAL", "endereco": "ENEAS DE CASTRO", "numero": "54", "bairro": "CENTRO", "cep": "63680-000", "municipio": "PARAMBU" }, "geometry": { "type": "Point", "coordinates": [ -40.693978542327898, -6.21085067793798 ] } },
{ "type": "Feature", "properties": { "id": "137", "nome": "CONSELHO MUNICIPAL DE ASSISTÊNCIA SOCIAL", "endereco": "FIRMINO GOMES", "numero": "491", "bairro": "CENTRO", "cep": "62736-000", "municipio": "PARAMOTI" }, "geometry": { "type": "Point", "coordinates": [ -39.238851070404003, -4.098862927515851 ] } },
{ "type": "Feature", "properties": { "id": "138", "nome": "CONSELHO MUNICIPAL DE ASSISTÊNCIA SOCIAL", "endereco": "FURTUNATO SILVA", "numero": "0", "bairro": "CENTRO", "cep": "63630-000", "municipio": "PEDRA BRANCA" }, "geometry": { "type": "Point", "coordinates": [ -39.716270864009807, -5.45520049421273 ] } },
{ "type": "Feature", "properties": { "id": "139", "nome": "CONSELHO MUNICIPAL DE ASSISTÊNCIA SOCIAL", "endereco": "RUA AGAILDES SAMPAIO GONDIM", "numero": "2", "bairro": "NOSSA SENHORA APARECIDA", "cep": "63280-000", "municipio": "PENAFORTE" }, "geometry": { "type": "Point", "coordinates": [ -39.070794582366901, -7.832623367951671 ] } },
{ "type": "Feature", "properties": { "id": "140", "nome": "CONSELHO MUNICIPAL DE ASSISTÊNCIA SOCIAL", "endereco": "ADERLON PINHEIRO", "numero": "363", "bairro": "ACAMPAMENTO", "cep": "62640-000", "municipio": "PENTECOSTE" }, "geometry": { "type": "Point", "coordinates": [ -39.26792621612541, -3.79540620523482 ] } },
{ "type": "Feature", "properties": { "id": "141", "nome": "CONSELHO MUNICIPAL DE ASSISTÊNCIA SOCIAL", "endereco": "CORONEL PORTO", "numero": "107", "bairro": "CENTRO", "cep": "63460-000", "municipio": "PEREIRO" }, "geometry": { "type": "Point", "coordinates": [ -38.4608602523803, -6.04759204002262 ] } },
{ "type": "Feature", "properties": { "id": "142", "nome": "CONSELHO MUNICIPAL DE ASSISTÊNCIA SOCIAL", "endereco": "MARECHAL CASTELO BRANCO", "numero": "0", "bairro": "CENTRO", "cep": "62860-000", "municipio": "PINDORETAMA" }, "geometry": { "type": "Point", "coordinates": [ -38.303554058074901, -4.02984025487228 ] } },
{ "type": "Feature", "properties": { "id": "143", "nome": "CONSELHO MUNICIPAL DE ASSISTÊNCIA SOCIAL", "endereco": "RUA ZACARIAS PINHEIRO DA SILVA", "numero": "0", "bairro": "CENTRO", "cep": "63605-000", "municipio": "PIQUET CARNEIRO" }, "geometry": { "type": "Point", "coordinates": [ -39.417507648468003, -5.80848742941779 ] } },
{ "type": "Feature", "properties": { "id": "144", "nome": "CONSELHO MUNICIPAL DE ASSISTÊNCIA SOCIAL", "endereco": "PROFESSOR OTÁVIO RODRIGUES", "numero": "18", "bairro": "CENTRO", "cep": "62255-000", "municipio": "PIRES FERREIRA" }, "geometry": { "type": "Point", "coordinates": [ -40.646281242370598, -4.24423869045887 ] } },
{ "type": "Feature", "properties": { "id": "145", "nome": "CONSELHO MUNICIPAL DE ASSISTÊNCIA SOCIAL", "endereco": "DR EPITACIO DE PINHO", "numero": "1", "bairro": "CENTRO", "cep": "62220-000", "municipio": "PORANGA" }, "geometry": { "type": "Point", "coordinates": [ -40.920145511627197, -4.74478115139605 ] } },
{ "type": "Feature", "properties": { "id": "146", "nome": "CONSELHO MUNICIPAL DE ASSISTÊNCIA SOCIAL", "endereco": "RUA JOSÉ DE ALENCAR", "numero": "19", "bairro": "ARISTARCO CARDOSO", "cep": "63270-000", "municipio": "PORTEIRAS" }, "geometry": { "type": "Point", "coordinates": [ -39.1178747, -7.5347262 ] } },
{ "type": "Feature", "properties": { "id": "147", "nome": "CONSELHO MUNICIPAL DE ASSISTÊNCIA SOCIAL", "endereco": "MANOEL MONTEIRO", "numero": "132", "bairro": "CENTRO", "cep": "63160-000", "municipio": "POTENGI" }, "geometry": { "type": "Point", "coordinates": [ -40.027205944061208, -7.09062928380865 ] } },
{ "type": "Feature", "properties": { "id": "148", "nome": "CONSELHO MUNICIPAL DE ASSISTÊNCIA SOCIAL", "endereco": "RUA HONOR DIOGENES", "numero": "0", "bairro": "CENTRO", "cep": "62990-000", "municipio": "POTIRETAMA" }, "geometry": { "type": "Point", "coordinates": [ -38.1564617156982, -5.72351799165836 ] } },
{ "type": "Feature", "properties": { "id": "149", "nome": "CONSELHO MUNICIPAL DE ASSISTÊNCIA SOCIAL", "endereco": "RUA DAS ACACIAS", "numero": "100", "bairro": "CENTRO", "cep": "63650-000", "municipio": "QUITERIANOPOLIS" }, "geometry": { "type": "Point", "coordinates": [ -40.705665349960306, -5.84630325798198 ] } },
{ "type": "Feature", "properties": { "id": "150", "nome": "CONSELHO MUNICIPAL DE ASSISTÊNCIA SOCIAL", "endereco": "JOSÉ DE ALENCAR", "numero": "405", "bairro": "CENTRO", "cep": "63900-000", "municipio": "QUIXADA" }, "geometry": { "type": "Point", "coordinates": [ -39.025245986091399, -4.97275355 ] } },
{ "type": "Feature", "properties": { "id": "151", "nome": "CONSELHO MUNICIPAL DE ASSISTÊNCIA SOCIAL", "endereco": "LUIS VICENTE - PERIMETRAL", "numero": "150", "bairro": "CENTRO", "cep": "63515-000", "municipio": "QUIXELO" }, "geometry": { "type": "Point", "coordinates": [ -39.197888374328599, -6.25054967037959 ] } },
{ "type": "Feature", "properties": { "id": "152", "nome": "CONSELHO MUNICIPAL DE ASSISTÊNCIA SOCIAL", "endereco": "MONSENHOR SALVIANO PINTO", "numero": "185", "bairro": "CENTRO", "cep": "63800-000", "municipio": "QUIXERAMOBIM" }, "geometry": { "type": "Point", "coordinates": [ -39.295220375061, -5.198526914529 ] } },
{ "type": "Feature", "properties": { "id": "153", "nome": "CONSELHO MUNICIPAL DE ASSISTÊNCIA SOCIAL", "endereco": "CORONEL JOSE DE BRITO", "numero": "271", "bairro": "CENTRO", "cep": "62920-000", "municipio": "QUIXERE" }, "geometry": { "type": "Point", "coordinates": [ -37.989864349365199, -5.07269135399281 ] } },
{ "type": "Feature", "properties": { "id": "154", "nome": "CONSELHO MUNICIPAL DE ASSISTÊNCIA SOCIAL", "endereco": "RUA NEWTON PRADO,", "numero": "52", "bairro": "SEDE", "cep": "62790-000", "municipio": "REDENCAO" }, "geometry": { "type": "Point", "coordinates": [ -38.725744485855103, -4.2236473947607 ] } },
{ "type": "Feature", "properties": { "id": "155", "nome": "CONSELHO MUNICIPAL DE ASSISTÊNCIA SOCIAL", "endereco": "PROFESSORA ALAÍDES RAMOS", "numero": "0", "bairro": "CENTRO", "cep": "62260-000", "municipio": "RERIUTABA" }, "geometry": { "type": "Point", "coordinates": [ -40.5798000097274, -4.14053841603851 ] } },
{ "type": "Feature", "properties": { "id": "156", "nome": "CONSELHO MUNICIPAL DE ASSISTÊNCIA SOCIAL", "endereco": "PREFEITO ELISEU FERREIRA LIMA", "numero": "842", "bairro": "CATUMBELA", "cep": "62900-000", "municipio": "RUSSAS" }, "geometry": { "type": "Point", "coordinates": [ -37.987895012047296, -4.94117800635588 ] } },
{ "type": "Feature", "properties": { "id": "157", "nome": "CONSELHO MUNICIPAL DE ASSISTÊNCIA SOCIAL", "endereco": "FERNANDES BASTOS", "numero": "125", "bairro": "CENTRO", "cep": "63590-000", "municipio": "SABOEIRO" }, "geometry": { "type": "Point", "coordinates": [ -39.904103279113698, -6.537183957347811 ] } },
{ "type": "Feature", "properties": { "id": "158", "nome": "CONSELHO MUNICIPAL DE ASSISTÊNCIA SOCIAL", "endereco": "PRAÇA SÃO FRANCISCO", "numero": "64", "bairro": "CENTRO", "cep": "63155-000", "municipio": "SALITRE" }, "geometry": { "type": "Point", "coordinates": [ -40.457, -7.285 ] } },
{ "type": "Feature", "properties": { "id": "159", "nome": "CONSELHO MUNICIPAL DE ASSISTÊNCIA SOCIAL", "endereco": "MONSENHOR FURTADO", "numero": "348", "bairro": "CENTRO", "cep": "62280-000", "municipio": "SANTA QUITERIA" }, "geometry": { "type": "Point", "coordinates": [ -40.154943466186502, -4.33489481122686 ] } },
{ "type": "Feature", "properties": { "id": "160", "nome": "CONSELHO MUNICIPAL DE ASSISTÊNCIA SOCIAL", "endereco": "RUA DR. MANOEL JOAQUIM", "numero": "0", "bairro": "BAIRRO JOÃO ALFREDO", "cep": "62150-000", "municipio": "SANTANA DO ACARAU" }, "geometry": { "type": "Point", "coordinates": [ -40.211827754974301, -3.46595901471926 ] } },
{ "type": "Feature", "properties": { "id": "161", "nome": "CONSELHO MUNICIPAL DE ASSISTÊNCIA SOCIAL", "endereco": "DR. JOSÉ AUGUSTO DE ARAUJO", "numero": "387", "bairro": "CENTRO", "cep": "63190-000", "municipio": "SANTANA DO CARIRI" }, "geometry": { "type": "Point", "coordinates": [ -39.737527370452803, -7.181394777240029 ] } },
{ "type": "Feature", "properties": { "id": "162", "nome": "CONSELHO MUNICIPAL DE ASSISTÊNCIA SOCIAL", "endereco": "ABDORAL RODRIGUES", "numero": "1000", "bairro": "QUADRO DE SÃO FRANCISCO", "cep": "62370-000", "municipio": "SAO BENEDITO" }, "geometry": { "type": "Point", "coordinates": [ -40.865632295608499, -4.04175558462656 ] } },
{ "type": "Feature", "properties": { "id": "163", "nome": "CONSELHO MUNICIPAL DE ASSISTÊNCIA SOCIAL", "endereco": "ERETIDES MARTINS", "numero": "112", "bairro": "CENTRO", "cep": "62670-000", "municipio": "SAO GONCALO DO AMARANTE" }, "geometry": { "type": "Point", "coordinates": [ -38.969, -3.606 ] } },
{ "type": "Feature", "properties": { "id": "164", "nome": "CONSELHO MUNICIPAL DE ASSISTÊNCIA SOCIAL", "endereco": "IZABEL SINENA", "numero": "268", "bairro": "CENTRO", "cep": "62965-000", "municipio": "SAO JOAO DO JAGUARIBE" }, "geometry": { "type": "Point", "coordinates": [ -38.273202180862398, -5.271969276850791 ] } },
{ "type": "Feature", "properties": { "id": "165", "nome": "CONSELHO MUNICIPAL DE ASSISTÊNCIA SOCIAL", "endereco": "ROCHAEL MOREIRA", "numero": "0", "bairro": "CENTRO", "cep": "62665-000", "municipio": "SAO LUIS DO CURU" }, "geometry": { "type": "Point", "coordinates": [ -39.2411444, -3.6721635 ] } },
{ "type": "Feature", "properties": { "id": "166", "nome": "CONSELHO MUNICIPAL DE ASSISTÊNCIA SOCIAL", "endereco": "FRANCISCO LEANDRO", "numero": "0", "bairro": "CENTRO", "cep": "63600-000", "municipio": "SENADOR POMPEU" }, "geometry": { "type": "Point", "coordinates": [ -39.377718469619694, -5.58909981758461 ] } },
{ "type": "Feature", "properties": { "id": "167", "nome": "CONSELHO MUNICIPAL DE ASSISTÊNCIA SOCIAL", "endereco": "CORONEL APOLIANO", "numero": "1", "bairro": "CENTRO", "cep": "62470-000", "municipio": "SENADOR SA" }, "geometry": { "type": "Point", "coordinates": [ -40.464971959590898, -3.35076915156887 ] } },
{ "type": "Feature", "properties": { "id": "168", "nome": "CONSELHO MUNICIPAL DE ASSISTÊNCIA SOCIAL", "endereco": "CEL. JOSÉ SABOIA", "numero": "513", "bairro": "CENTRO", "cep": "62011-040", "municipio": "SOBRAL" }, "geometry": { "type": "Point", "coordinates": [ -40.351238250732401, -3.68937976676167 ] } },
{ "type": "Feature", "properties": { "id": "169", "nome": "CONSELHO MUNICIPAL DE ASSISTÊNCIA SOCIAL", "endereco": "ANTONIO VALTERNO NOGUEIRA", "numero": "5", "bairro": "CENTRO", "cep": "63620-000", "municipio": "SOLONOPOLE" }, "geometry": { "type": "Point", "coordinates": [ -39.007215499877901, -5.72996586655627 ] } },
{ "type": "Feature", "properties": { "id": "170", "nome": "CONSELHO MUNICIPAL DE ASSISTÊNCIA SOCIAL", "endereco": "PADRE CLICÉRIO", "numero": "4605", "bairro": "SÃO FRANCISCO", "cep": "62960-000", "municipio": "TABULEIRO DO NORTE" }, "geometry": { "type": "Point", "coordinates": [ -38.1301975250244, -5.25145671331121 ] } },
{ "type": "Feature", "properties": { "id": "171", "nome": "CONSELHO MUNICIPAL DE ASSISTÊNCIA SOCIAL", "endereco": "GERMINIANO RODRIGUES DE FARIAS", "numero": "0", "bairro": "VILA SÃO PEDRO", "cep": "63750-000", "municipio": "TAMBORIL" }, "geometry": { "type": "Point", "coordinates": [ -40.321862697601297, -4.83322024341325 ] } },
{ "type": "Feature", "properties": { "id": "172", "nome": "CONSELHO MUNICIPAL DE ASSISTÊNCIA SOCIAL", "endereco": "ANTONIO GONÇALVES VALENÇA", "numero": "57", "bairro": "CENTRO", "cep": "63145-000", "municipio": "TARRAFAS" }, "geometry": { "type": "Point", "coordinates": [ -39.759273529016298, -6.68326526775993 ] } },
{ "type": "Feature", "properties": { "id": "173", "nome": "CONSELHO MUNICIPAL DE ASSISTÊNCIA SOCIAL", "endereco": "DOMINGAS GOMES", "numero": "162", "bairro": "CENTRO", "cep": "63660-000", "municipio": "TAUA" }, "geometry": { "type": "Point", "coordinates": [ -40.291703939437802, -5.99938411342896 ] } },
{ "type": "Feature", "properties": { "id": "174", "nome": "CONSELHO MUNICIPAL DE ASSISTÊNCIA SOCIAL", "endereco": "ALFREDO PINTO DE MEQUITA", "numero": "480", "bairro": "CENTRO", "cep": "62610-000", "municipio": "TEJUCUOCA" }, "geometry": { "type": "Point", "coordinates": [ -39.579749107360797, -3.9892518056877 ] } },
{ "type": "Feature", "properties": { "id": "175", "nome": "CONSELHO MUNICIPAL DE ASSISTÊNCIA SOCIAL", "endereco": "VEREADOR RAIMUNDO LIMA", "numero": "200", "bairro": "FREI GALVÃO", "cep": "62320-000", "municipio": "TIANGUA" }, "geometry": { "type": "Point", "coordinates": [ -40.994303226470898, -3.72347963530518 ] } },
{ "type": "Feature", "properties": { "id": "176", "nome": "CONSELHO MUNICIPAL DE ASSISTÊNCIA SOCIAL", "endereco": "AV. SALVADOR MARTINS", "numero": "149", "bairro": "CENTRO", "cep": "62690-000", "municipio": "TRAIRI" }, "geometry": { "type": "Point", "coordinates": [ -39.267711639404304, -3.27229559388903 ] } },
{ "type": "Feature", "properties": { "id": "177", "nome": "CONSELHO MUNICIPAL DE ASSISTÊNCIA SOCIAL", "endereco": "NENÉM BARROSO", "numero": "22", "bairro": "CENTRO", "cep": "62655-000", "municipio": "TURURU" }, "geometry": { "type": "Point", "coordinates": [ -39.434861272969599, -3.59975714828943 ] } },
{ "type": "Feature", "properties": { "id": "178", "nome": "CONSELHO MUNICIPAL DE ASSISTÊNCIA SOCIAL", "endereco": "TERMINAL RODOVIARIO DR. JOSE RIBAMAR CAVALCANTE", "numero": "1", "bairro": "DOMICIO PEREIRA", "cep": "62350-000", "municipio": "UBAJARA" }, "geometry": { "type": "Point", "coordinates": [ -40.925284624099703, -3.85350728568255 ] } },
{ "type": "Feature", "properties": { "id": "179", "nome": "CONSELHO MUNICIPAL DE ASSISTÊNCIA SOCIAL", "endereco": "CORONEL ANTÔNIO MALHEIROS", "numero": "0", "bairro": "CENTRO", "cep": "63310-000", "municipio": "UMARI" }, "geometry": { "type": "Point", "coordinates": [ -38.699126243591301, -6.643081290939721 ] } },
{ "type": "Feature", "properties": { "id": "180", "nome": "CONSELHO MUNICIPAL DE ASSISTÊNCIA SOCIAL", "endereco": "RUFINO DE SOUSA", "numero": "0", "bairro": "BANANA", "cep": "62660-000", "municipio": "UMIRIM" }, "geometry": { "type": "Point", "coordinates": [ -39.346590042114201, -3.67331095996403 ] } },
{ "type": "Feature", "properties": { "id": "181", "nome": "CONSELHO MUNICIPAL DE ASSISTÊNCIA SOCIAL", "endereco": "JOSÉ PIRES CHAVES", "numero": "1077", "bairro": "CENTRO", "cep": "62650-000", "municipio": "URUBURETAMA" }, "geometry": { "type": "Point", "coordinates": [ -39.508429169654796, -3.621301927809859 ] } },
{ "type": "Feature", "properties": { "id": "182", "nome": "CONSELHO MUNICIPAL DE ASSISTÊNCIA SOCIAL", "endereco": "RAIMUNDO ANTONIO", "numero": "13", "bairro": "CENTRO", "cep": "62460-000", "municipio": "URUOCA" }, "geometry": { "type": "Point", "coordinates": [ -40.560761690139699, -3.31472232172767 ] } },
{ "type": "Feature", "properties": { "id": "183", "nome": "CONSELHO MUNICIPAL DE ASSISTÊNCIA SOCIAL", "endereco": "CLOVIS XIMENES", "numero": "314", "bairro": "CENTRO", "cep": "62265-000", "municipio": "VARJOTA" }, "geometry": { "type": "Point", "coordinates": [ -40.477323532104506, -4.19525522695133 ] } },
{ "type": "Feature", "properties": { "id": "184", "nome": "CONSELHO MUNICIPAL DE ASSISTÊNCIA SOCIAL", "endereco": "TENENTE ANTÔNIO GONÇALVES", "numero": "19", "bairro": "JUREMAL", "cep": "63540-000", "municipio": "VARZEA ALEGRE" }, "geometry": { "type": "Point", "coordinates": [ -39.305380582809399, -6.791388147324 ] } },
{ "type": "Feature", "properties": { "id": "185", "nome": "CONSELHO MUNICIPAL DE ASSISTÊNCIA SOCIAL", "endereco": "LAMARTINE NOGUEIRA", "numero": "757", "bairro": "CENTRO", "cep": "62300-000", "municipio": "VICOSA DO CEARA" }, "geometry": { "type": "Point", "coordinates": [ -41.090103149545001, -3.5659413077046 ] } }
]
}
